{
  "hub": {
    "id": 0,
    "name": "Gudang Pusat",
    "lat": -6.9175,
    "lng": 107.6191
  },
  "customers": [
    {
      "id": 1,
      "name": "Pelanggan A",
      "lat": -6.9212,
      "lng": 107.6034,
      "package_weight_kg": 3.5
    },
    {
      "id": 2,
      "name": "Pelanggan B",
      "lat": -6.9097,
      "lng": 107.6382,
      "package_weight_kg": 5.0
    },
    {
      "id": 3,
      "name": "Pelanggan C",
      "lat": -6.925,
      "lng": 107.625,
      "package_weight_kg": 2.0
    },
    {
      "id": 4,
      "name": "Pelanggan D",
      "lat": -6.93,
      "lng": 107.61,
      "package_weight_kg": 4.0
    },
    {
      "id": 5,
      "name": "Pelanggan E",
      "lat": -6.91,
      "lng": 107.6,
      "package_weight_kg": 1.5
    },
    {
      "id": 6,
      "name": "Pelanggan F",
      "lat": -6.94,
      "lng": 107.63,
      "package_weight_kg": 2.5
    },
    {
      "id": 7,
      "name": "Pelanggan G",
      "lat": -6.89,
      "lng": 107.615,
      "package_weight_kg": 3.0
    },
    {
      "id": 8,
      "name": "Pelanggan H",
      "lat": -6.92,
      "lng": 107.64,
      "package_weight_kg": 1.0
    },
    {
      "id": 9,
      "name": "Pelanggan I",
      "lat": -6.95,
      "lng": 107.62,
      "package_weight_kg": 6.0
    },
    {
      "id": 10,
      "name": "Pelanggan J",
      "lat": -6.915,
      "lng": 107.59,
      "package_weight_kg": 2.0
    },
    {
      "id": 11,
      "name": "Pelanggan K",
      "lat": -6.9,
      "lng": 107.65,
      "package_weight_kg": 4.5
    },
    {
      "id": 12,
      "name": "Pelanggan L",
      "lat": -6.935,
      "lng": 107.605,
      "package_weight_kg": 3.5
    }
  ],
  "distance_matrix": [
    [
      0.0,
      1.78,
      2.28,
      1.06,
      1.71,
      2.27,
      2.78,
      3.09,
      2.32,
      3.62,
      3.22,
      3.93,
      2.49
    ],
    [
      1.78,
      0.0,
      4.05,
      2.42,
      1.22,
      1.3,
      3.6,
      3.7,
      4.04,
      3.69,
      1.63,
      5.66,
      1.54
    ],
    [
      2.28,
      4.05,
      0.0,
      2.24,
      3.85,
      4.22,
      3.49,
      3.37,
      1.16,
      4.91,
      5.35,
      1.69,
      4.62
    ],
    [
      1.06,
      2.42,
      2.24,
      0.0,
      1.75,
      3.22,
      1.76,
      4.05,
      1.75,
      2.83,
      4.02,
      3.92,
      2.47
    ],
    [
      1.71,
      1.22,
      3.85,
      1.75,
      0.0,
      2.48,
      2.47,
      4.48,
      3.49,
      2.48,
      2.77,
      5.53,
      0.78
    ],
    [
      2.27,
      1.3,
      4.22,
      3.22,
      2.48,
      0.0,
      4.7,
      2.77,
      4.55,
      4.97,
      1.24,
      5.63,
      2.83
    ],
    [
      2.78,
      3.6,
      3.49,
      1.76,
      2.47,
      4.7,
      0.0,
      5.8,
      2.48,
      1.57,
      5.22,
      4.97,
      2.81
    ],
    [
      3.09,
      3.7,
      3.37,
      4.05,
      4.48,
      2.77,
      5.8,
      0.0,
      4.33,
      6.69,
      3.92,
      4.02,
      5.12
    ],
    [
      2.32,
      4.04,
      1.16,
      1.75,
      3.49,
      4.55,
      2.48,
      4.33,
      0.0,
      4.0,
      5.55,
      2.48,
      4.21
    ],
    [
      3.62,
      3.69,
      4.91,
      2.83,
      2.48,
      4.97,
      1.57,
      6.69,
      4.0,
      0.0,
      5.11,
      6.47,
      2.35
    ],
    [
      3.22,
      1.63,
      5.35,
      4.02,
      2.77,
      1.24,
      5.22,
      3.92,
      5.55,
      5.11,
      0.0,
      6.83,
      2.77
    ],
    [
      3.93,
      5.66,
      1.69,
      3.92,
      5.53,
      5.63,
      4.97,
      4.02,
      2.48,
      6.47,
      6.83,
      0.0,
      6.31
    ],
    [
      2.49,
      1.54,
      4.62,
      2.47,
      0.78,
      2.83,
      2.81,
      5.12,
      4.21,
      2.35,
      2.77,
      6.31,
      0.0
    ]
  ],
  "params": {
    "fuel_price_per_liter": 5000,
    "compute_cost_per_ms": 50,
    "consumption_full_load": 0.05,
    "consumption_empty": 0.02
  }
}